{
  "type": "FeatureCollection",
  "features": [
    {
      "type": "Feature",
      "geometry": {
        "type": "Point",
        "coordinates": [
          92.889533,
          23.811879
        ]
      },
      "properties": {
        "district": "Aizawal",
        "dt_code": "261",
        "st_nm": "Mizoram",
        "st_code": "15"
      }
    },
    {
      "type": "Feature",
      "geometry": {
        "type": "Point",
        "coordinates": [
          93.262456,
          23.543088
        ]
      },
      "properties": {
        "district": "Champhai",
        "dt_code": "262",
        "st_nm": "Mizoram",
        "st_code": "15"
      }
    },
    {
      "type": "Feature",
      "geometry": {
        "type": "Point",
        "coordinates": [
          92.726158,
          24.197696
        ]
      },
      "properties": {
        "district": "Kolasib",
        "dt_code": "263",
        "st_nm": "Mizoram",
        "st_code": "15"
      }
    },
    {
      "type": "Feature",
      "geometry": {
        "type": "Point",
        "coordinates": [
          92.711439,
          22.38375
        ]
      },
      "properties": {
        "district": "Lawngtlai",
        "dt_code": "264",
        "st_nm": "Mizoram",
        "st_code": "15"
      }
    },
    {
      "type": "Feature",
      "geometry": {
        "type": "Point",
        "coordinates": [
          92.6533,
          22.9774
        ]
      },
      "properties": {
        "district": "Lunglei",
        "dt_code": "265",
        "st_nm": "Mizoram",
        "st_code": "15"
      }
    },
    {
      "type": "Feature",
      "geometry": {
        "type": "Point",
        "coordinates": [
          92.464654,
          23.752395
        ]
      },
      "properties": {
        "district": "Mamit",
        "dt_code": "266",
        "st_nm": "Mizoram",
        "st_code": "15"
      }
    },
    {
      "type": "Feature",
      "geometry": {
        "type": "Point",
        "coordinates": [
          93.012125,
          22.376941
        ]
      },
      "properties": {
        "district": "Saiha",
        "dt_code": "267",
        "st_nm": "Mizoram",
        "st_code": "15"
      }
    },
    {
      "type": "Feature",
      "geometry": {
        "type": "Point",
        "coordinates": [
          92.959196,
          23.265941
        ]
      },
      "properties": {
        "district": "Serchhip",
        "dt_code": "268",
        "st_nm": "Mizoram",
        "st_code": "15"
      }
    },
    {
      "type": "Feature",
      "geometry": {
        "type": "Point",
        "coordinates": [
          93.190747,
          23.502316
        ]
      },
      "properties": {
        "district": "Khawzawl",
        "dt_code": "996",
        "st_nm": "Mizoram",
        "st_code": "15"
      }
    },
    {
      "type": "Feature",
      "geometry": {
        "type": "Point",
        "coordinates": [
          92.986919,
          22.953637
        ]
      },
      "properties": {
        "district": "Hnahthial",
        "dt_code": "994",
        "st_nm": "Mizoram",
        "st_code": "15"
      }
    },
    {
      "type": "Feature",
      "geometry": {
        "type": "Point",
        "coordinates": [
          79.94659,
          13.238959
        ]
      },
      "properties": {
        "district": "Thiruvallur",
        "dt_code": "602",
        "st_nm": "Tamil Nadu",
        "st_code": "33"
      }
    },
    {
      "type": "Feature",
      "geometry": {
        "type": "Point",
        "coordinates": [
          80.224592,
          13.008973
        ]
      },
      "properties": {
        "district": "Chennai",
        "dt_code": "603",
        "st_nm": "Tamil Nadu",
        "st_code": "33"
      }
    },
    {
      "type": "Feature",
      "geometry": {
        "type": "Point",
        "coordinates": [
          78.030402,
          12.491345
        ]
      },
      "properties": {
        "district": "Krishnagiri",
        "dt_code": "631",
        "st_nm": "Tamil Nadu",
        "st_code": "33"
      }
    },
    {
      "type": "Feature",
      "geometry": {
        "type": "Point",
        "coordinates": [
          79.166162,
          12.432412
        ]
      },
      "properties": {
        "district": "Tiruvannamalai",
        "dt_code": "606",
        "st_nm": "Tamil Nadu",
        "st_code": "33"
      }
    },
    {
      "type": "Feature",
      "geometry": {
        "type": "Point",
        "coordinates": [
          78.19357,
          12.100746
        ]
      },
      "properties": {
        "district": "Dharmapuri",
        "dt_code": "630",
        "st_nm": "Tamil Nadu",
        "st_code": "33"
      }
    },
    {
      "type": "Feature",
      "geometry": {
        "type": "Point",
        "coordinates": [
          78.22251,
          11.677701
        ]
      },
      "properties": {
        "district": "Salem",
        "dt_code": "608",
        "st_nm": "Tamil Nadu",
        "st_code": "33"
      }
    },
    {
      "type": "Feature",
      "geometry": {
        "type": "Point",
        "coordinates": [
          77.412293,
          11.518855
        ]
      },
      "properties": {
        "district": "Erode",
        "dt_code": "610",
        "st_nm": "Tamil Nadu",
        "st_code": "33"
      }
    },
    {
      "type": "Feature",
      "geometry": {
        "type": "Point",
        "coordinates": [
          76.639508,
          11.456029
        ]
      },
      "properties": {
        "district": "The Nilgiris",
        "dt_code": "611",
        "st_nm": "Tamil Nadu",
        "st_code": "33"
      }
    },
    {
      "type": "Feature",
      "geometry": {
        "type": "Point",
        "coordinates": [
          78.135602,
          11.31884
        ]
      },
      "properties": {
        "district": "Namakkal",
        "dt_code": "609",
        "st_nm": "Tamil Nadu",
        "st_code": "33"
      }
    },
    {
      "type": "Feature",
      "geometry": {
        "type": "Point",
        "coordinates": [
          78.890302,
          11.274539
        ]
      },
      "properties": {
        "district": "Perambalur",
        "dt_code": "615",
        "st_nm": "Tamil Nadu",
        "st_code": "33"
      }
    },
    {
      "type": "Feature",
      "geometry": {
        "type": "Point",
        "coordinates": [
          76.975008,
          10.876395
        ]
      },
      "properties": {
        "district": "Coimbatore",
        "dt_code": "632",
        "st_nm": "Tamil Nadu",
        "st_code": "33"
      }
    },
    {
      "type": "Feature",
      "geometry": {
        "type": "Point",
        "coordinates": [
          78.56997,
          10.891061
        ]
      },
      "properties": {
        "district": "Tiruchirappalli",
        "dt_code": "614",
        "st_nm": "Tamil Nadu",
        "st_code": "33"
      }
    },
    {
      "type": "Feature",
      "geometry": {
        "type": "Point",
        "coordinates": [
          79.242389,
          11.162221
        ]
      },
      "properties": {
        "district": "Ariyalur",
        "dt_code": "616",
        "st_nm": "Tamil Nadu",
        "st_code": "33"
      }
    },
    {
      "type": "Feature",
      "geometry": {
        "type": "Point",
        "coordinates": [
          77.406968,
          10.838869
        ]
      },
      "properties": {
        "district": "Tiruppur",
        "dt_code": "633",
        "st_nm": "Tamil Nadu",
        "st_code": "33"
      }
    },
    {
      "type": "Feature",
      "geometry": {
        "type": "Point",
        "coordinates": [
          79.240682,
          10.67148
        ]
      },
      "properties": {
        "district": "Thanjavur",
        "dt_code": "620",
        "st_nm": "Tamil Nadu",
        "st_code": "33"
      }
    },
    {
      "type": "Feature",
      "geometry": {
        "type": "Point",
        "coordinates": [
          78.134513,
          10.844374
        ]
      },
      "properties": {
        "district": "Karur",
        "dt_code": "613",
        "st_nm": "Tamil Nadu",
        "st_code": "33"
      }
    },
    {
      "type": "Feature",
      "geometry": {
        "type": "Point",
        "coordinates": [
          79.52933,
          10.702806
        ]
      },
      "properties": {
        "district": "Thiruvarur",
        "dt_code": "619",
        "st_nm": "Tamil Nadu",
        "st_code": "33"
      }
    },
    {
      "type": "Feature",
      "geometry": {
        "type": "Point",
        "coordinates": [
          77.819517,
          10.391787
        ]
      },
      "properties": {
        "district": "Dindigul",
        "dt_code": "612",
        "st_nm": "Tamil Nadu",
        "st_code": "33"
      }
    },
    {
      "type": "Feature",
      "geometry": {
        "type": "Point",
        "coordinates": [
          78.005054,
          9.922847
        ]
      },
      "properties": {
        "district": "Madurai",
        "dt_code": "623",
        "st_nm": "Tamil Nadu",
        "st_code": "33"
      }
    },
    {
      "type": "Feature",
      "geometry": {
        "type": "Point",
        "coordinates": [
          77.438063,
          9.892099
        ]
      },
      "properties": {
        "district": "Theni",
        "dt_code": "624",
        "st_nm": "Tamil Nadu",
        "st_code": "33"
      }
    },
    {
      "type": "Feature",
      "geometry": {
        "type": "Point",
        "coordinates": [
          77.905804,
          9.492213
        ]
      },
      "properties": {
        "district": "Virudhunagar",
        "dt_code": "625",
        "st_nm": "Tamil Nadu",
        "st_code": "33"
      }
    },
    {
      "type": "Feature",
      "geometry": {
        "type": "Point",
        "coordinates": [
          78.004138,
          8.891313
        ]
      },
      "properties": {
        "district": "Thoothukkudi",
        "dt_code": "627",
        "st_nm": "Tamil Nadu",
        "st_code": "33"
      }
    },
    {
      "type": "Feature",
      "geometry": {
        "type": "Point",
        "coordinates": [
          77.359994,
          8.307063
        ]
      },
      "properties": {
        "district": "Kanniyakumari",
        "dt_code": "629",
        "st_nm": "Tamil Nadu",
        "st_code": "33"
      }
    },
    {
      "type": "Feature",
      "geometry": {
        "type": "Point",
        "coordinates": [
          79.530709,
          12.118375
        ]
      },
      "properties": {
        "district": "Viluppuram",
        "dt_code": "607",
        "st_nm": "Tamil Nadu",
        "st_code": "33"
      }
    },
    {
      "type": "Feature",
      "geometry": {
        "type": "Point",
        "coordinates": [
          79.450546,
          11.536239
        ]
      },
      "properties": {
        "district": "Cuddalore",
        "dt_code": "617",
        "st_nm": "Tamil Nadu",
        "st_code": "33"
      }
    },
    {
      "type": "Feature",
      "geometry": {
        "type": "Point",
        "coordinates": [
          78.878974,
          10.360108
        ]
      },
      "properties": {
        "district": "Pudukkottai",
        "dt_code": "621",
        "st_nm": "Tamil Nadu",
        "st_code": "33"
      }
    },
    {
      "type": "Feature",
      "geometry": {
        "type": "Point",
        "coordinates": [
          78.590431,
          9.919792
        ]
      },
      "properties": {
        "district": "Sivaganga",
        "dt_code": "622",
        "st_nm": "Tamil Nadu",
        "st_code": "33"
      }
    },
    {
      "type": "Feature",
      "geometry": {
        "type": "Point",
        "coordinates": [
          78.690659,
          9.448616
        ]
      },
      "properties": {
        "district": "Ramanathapuram",
        "dt_code": "626",
        "st_nm": "Tamil Nadu",
        "st_code": "33"
      }
    },
    {
      "type": "Feature",
      "geometry": {
        "type": "Point",
        "coordinates": [
          79.729216,
          10.809471
        ]
      },
      "properties": {
        "district": "Nagapattinam",
        "dt_code": "618",
        "st_nm": "Tamil Nadu",
        "st_code": "33"
      }
    },
    {
      "type": "Feature",
      "geometry": {
        "type": "Point",
        "coordinates": [
          79.010565,
          11.797772
        ]
      },
      "properties": {
        "district": "Kallakurichi",
        "dt_code": "729",
        "st_nm": "Tamil Nadu",
        "st_code": "33"
      }
    },
    {
      "type": "Feature",
      "geometry": {
        "type": "Point",
        "coordinates": [
          77.459482,
          9.087341
        ]
      },
      "properties": {
        "district": "Tenkasi",
        "dt_code": "0",
        "st_nm": "Tamil Nadu",
        "st_code": "33"
      }
    },
    {
      "type": "Feature",
      "geometry": {
        "type": "Point",
        "coordinates": [
          77.603244,
          8.574981
        ]
      },
      "properties": {
        "district": "Tirunelveli",
        "dt_code": "628",
        "st_nm": "Tamil Nadu",
        "st_code": "33"
      }
    },
    {
      "type": "Feature",
      "geometry": {
        "type": "Point",
        "coordinates": [
          78.953929,
          12.9005
        ]
      },
      "properties": {
        "district": "Vellore",
        "dt_code": "605",
        "st_nm": "Tamil Nadu",
        "st_code": "33"
      }
    },
    {
      "type": "Feature",
      "geometry": {
        "type": "Point",
        "coordinates": [
          79.459102,
          12.952261
        ]
      },
      "properties": {
        "district": "Ranipet",
        "dt_code": "0",
        "st_nm": "Tamil Nadu",
        "st_code": "33"
      }
    },
    {
      "type": "Feature",
      "geometry": {
        "type": "Point",
        "coordinates": [
          78.643685,
          12.584521
        ]
      },
      "properties": {
        "district": "Tirupathur",
        "dt_code": "0",
        "st_nm": "Tamil Nadu",
        "st_code": "33"
      }
    },
    {
      "type": "Feature",
      "geometry": {
        "type": "Point",
        "coordinates": [
          79.827716,
          12.826313
        ]
      },
      "properties": {
        "district": "Kancheepuram",
        "dt_code": "604",
        "st_nm": "Tamil Nadu",
        "st_code": "33"
      }
    },
    {
      "type": "Feature",
      "geometry": {
        "type": "Point",
        "coordinates": [
          79.996525,
          12.573553
        ]
      },
      "properties": {
        "district": "Chengalpattu",
        "dt_code": "0",
        "st_nm": "Tamil Nadu",
        "st_code": "33"
      }
    },
    {
      "type": "Feature",
      "geometry": {
        "type": "Point",
        "coordinates": [
          76.36982,
          21.369876
        ]
      },
      "properties": {
        "district": "Burhanpur",
        "dt_code": "467",
        "st_nm": "Madhya Pradesh",
        "st_code": "23"
      }
    },
    {
      "type": "Feature",
      "geometry": {
        "type": "Point",
        "coordinates": [
          80.212109,
          21.159078
        ]
      },
      "properties": {
        "district": "Gondiya",
        "dt_code": "507",
        "st_nm": "Maharashtra",
        "st_code": "27"
      }
    },
    {
      "type": "Feature",
      "geometry": {
        "type": "Point",
        "coordinates": [
          79.758865,
          21.122227
        ]
      },
      "properties": {
        "district": "Bhandara",
        "dt_code": "506",
        "st_nm": "Maharashtra",
        "st_code": "27"
      }
    },
    {
      "type": "Feature",
      "geometry": {
        "type": "Point",
        "coordinates": [
          75.486676,
          20.933503
        ]
      },
      "properties": {
        "district": "Jalgaon",
        "dt_code": "499",
        "st_nm": "Maharashtra",
        "st_code": "27"
      }
    },
    {
      "type": "Feature",
      "geometry": {
        "type": "Point",
        "coordinates": [
          82.608017,
          21.20778
        ]
      },
      "properties": {
        "district": "Mahasamund",
        "dt_code": "411",
        "st_nm": "Chhattisgarh",
        "st_code": "22"
      }
    },
    {
      "type": "Feature",
      "geometry": {
        "type": "Point",
        "coordinates": [
          78.585985,
          20.797129
        ]
      },
      "properties": {
        "district": "Wardha",
        "dt_code": "504",
        "st_nm": "Maharashtra",
        "st_code": "27"
      }
    },
    {
      "type": "Feature",
      "geometry": {
        "type": "Point",
        "coordinates": [
          76.407359,
          20.510972
        ]
      },
      "properties": {
        "district": "Buldana",
        "dt_code": "500",
        "st_nm": "Maharashtra",
        "st_code": "27"
      }
    },
    {
      "type": "Feature",
      "geometry": {
        "type": "Point",
        "coordinates": [
          73.11924,
          20.417675
        ]
      },
      "properties": {
        "district": "Valsad",
        "dt_code": "491",
        "st_nm": "Gujarat",
        "st_code": "24"
      }
    },
    {
      "type": "Feature",
      "geometry": {
        "type": "Point",
        "coordinates": [
          77.054603,
          20.747824
        ]
      },
      "properties": {
        "district": "Akola",
        "dt_code": "501",
        "st_nm": "Maharashtra",
        "st_code": "27"
      }
    },
    {
      "type": "Feature",
      "geometry": {
        "type": "Point",
        "coordinates": [
          86.62686,
          20.983139
        ]
      },
      "properties": {
        "district": "Bhadrak",
        "dt_code": "378",
        "st_nm": "Odisha",
        "st_code": "21"
      }
    },
    {
      "type": "Feature",
      "geometry": {
        "type": "Point",
        "coordinates": [
          85.524169,
          20.827062
        ]
      },
      "properties": {
        "district": "Dhenkanal",
        "dt_code": "383",
        "st_nm": "Odisha",
        "st_code": "21"
      }
    },
    {
      "type": "Feature",
      "geometry": {
        "type": "Point",
        "coordinates": [
          86.14929,
          20.855542
        ]
      },
      "properties": {
        "district": "Jajapur",
        "dt_code": "382",
        "st_nm": "Odisha",
        "st_code": "21"
      }
    },
    {
      "type": "Feature",
      "geometry": {
        "type": "Point",
        "coordinates": [
          83.822305,
          20.930601
        ]
      },
      "properties": {
        "district": "Subarnapur",
        "dt_code": "392",
        "st_nm": "Odisha",
        "st_code": "21"
      }
    },
    {
      "type": "Feature",
      "geometry": {
        "type": "Point",
        "coordinates": [
          82.577243,
          20.465319
        ]
      },
      "properties": {
        "district": "Nuapada",
        "dt_code": "394",
        "st_nm": "Odisha",
        "st_code": "21"
      }
    },
    {
      "type": "Feature",
      "geometry": {
        "type": "Point",
        "coordinates": [
          83.171298,
          20.588521
        ]
      },
      "properties": {
        "district": "Balangir",
        "dt_code": "393",
        "st_nm": "Odisha",
        "st_code": "21"
      }
    },
    {
      "type": "Feature",
      "geometry": {
        "type": "Point",
        "coordinates": [
          74.071112,
          20.259569
        ]
      },
      "properties": {
        "district": "Nashik",
        "dt_code": "516",
        "st_nm": "Maharashtra",
        "st_code": "27"
      }
    },
    {
      "type": "Feature",
      "geometry": {
        "type": "Point",
        "coordinates": [
          84.172743,
          20.644199
        ]
      },
      "properties": {
        "district": "Baudh",
        "dt_code": "391",
        "st_nm": "Odisha",
        "st_code": "21"
      }
    },
    {
      "type": "Feature",
      "geometry": {
        "type": "Point",
        "coordinates": [
          80.240493,
          19.788281
        ]
      },
      "properties": {
        "district": "Gadchiroli",
        "dt_code": "508",
        "st_nm": "Maharashtra",
        "st_code": "27"
      }
    },
    {
      "type": "Feature",
      "geometry": {
        "type": "Point",
        "coordinates": [
          77.216132,
          20.234106
        ]
      },
      "properties": {
        "district": "Washim",
        "dt_code": "502",
        "st_nm": "Maharashtra",
        "st_code": "27"
      }
    },
    {
      "type": "Feature",
      "geometry": {
        "type": "Point",
        "coordinates": [
          85.697252,
          20.453046
        ]
      },
      "properties": {
        "district": "Cuttack",
        "dt_code": "381",
        "st_nm": "Odisha",
        "st_code": "21"
      }
    },
    {
      "type": "Feature",
      "geometry": {
        "type": "Point",
        "coordinates": [
          79.440062,
          20.118216
        ]
      },
      "properties": {
        "district": "Chandrapur",
        "dt_code": "509",
        "st_nm": "Maharashtra",
        "st_code": "27"
      }
    },
    {
      "type": "Feature",
      "geometry": {
        "type": "Point",
        "coordinates": [
          78.161022,
          20.082976
        ]
      },
      "properties": {
        "district": "Yavatmal",
        "dt_code": "510",
        "st_nm": "Maharashtra",
        "st_code": "27"
      }
    },
    {
      "type": "Feature",
      "geometry": {
        "type": "Point",
        "coordinates": [
          84.045669,
          20.128119
        ]
      },
      "properties": {
        "district": "Kandhamal",
        "dt_code": "390",
        "st_nm": "Odisha",
        "st_code": "21"
      }
    },
    {
      "type": "Feature",
      "geometry": {
        "type": "Point",
        "coordinates": [
          75.980456,
          19.808316
        ]
      },
      "properties": {
        "district": "Jalna",
        "dt_code": "514",
        "st_nm": "Maharashtra",
        "st_code": "27"
      }
    },
    {
      "type": "Feature",
      "geometry": {
        "type": "Point",
        "coordinates": [
          84.998586,
          20.212545
        ]
      },
      "properties": {
        "district": "Nayagarh",
        "dt_code": "385",
        "st_nm": "Odisha",
        "st_code": "21"
      }
    },
    {
      "type": "Feature",
      "geometry": {
        "type": "Point",
        "coordinates": [
          81.122754,
          20.137452
        ]
      },
      "properties": {
        "district": "Uttar Bastar Kanker",
        "dt_code": "413",
        "st_nm": "Chhattisgarh",
        "st_code": "22"
      }
    },
    {
      "type": "Feature",
      "geometry": {
        "type": "Point",
        "coordinates": [
          85.516712,
          20.09216
        ]
      },
      "properties": {
        "district": "Khordha",
        "dt_code": "386",
        "st_nm": "Odisha",
        "st_code": "21"
      }
    },
    {
      "type": "Feature",
      "geometry": {
        "type": "Point",
        "coordinates": [
          83.108286,
          19.867261
        ]
      },
      "properties": {
        "district": "Kalahandi",
        "dt_code": "395",
        "st_nm": "Odisha",
        "st_code": "21"
      }
    },
    {
      "type": "Feature",
      "geometry": {
        "type": "Point",
        "coordinates": [
          86.336663,
          20.219103
        ]
      },
      "properties": {
        "district": "Jagatsinghapur",
        "dt_code": "380",
        "st_nm": "Odisha",
        "st_code": "21"
      }
    },
    {
      "type": "Feature",
      "geometry": {
        "type": "Point",
        "coordinates": [
          85.725074,
          19.878318
        ]
      },
      "properties": {
        "district": "Puri",
        "dt_code": "387",
        "st_nm": "Odisha",
        "st_code": "21"
      }
    },
    {
      "type": "Feature",
      "geometry": {
        "type": "Point",
        "coordinates": [
          74.675117,
          19.204544
        ]
      },
      "properties": {
        "district": "Ahmadnagar",
        "dt_code": "522",
        "st_nm": "Maharashtra",
        "st_code": "27"
      }
    },
    {
      "type": "Feature",
      "geometry": {
        "type": "Point",
        "coordinates": [
          82.334432,
          19.576372
        ]
      },
      "properties": {
        "district": "Nabarangapur",
        "dt_code": "397",
        "st_nm": "Odisha",
        "st_code": "21"
      }
    },
    {
      "type": "Feature",
      "geometry": {
        "type": "Point",
        "coordinates": [
          77.100911,
          19.620675
        ]
      },
      "properties": {
        "district": "Hingoli",
        "dt_code": "512",
        "st_nm": "Maharashtra",
        "st_code": "27"
      }
    },
    {
      "type": "Feature",
      "geometry": {
        "type": "Point",
        "coordinates": [
          83.512514,
          19.363293
        ]
      },
      "properties": {
        "district": "Rayagada",
        "dt_code": "396",
        "st_nm": "Odisha",
        "st_code": "21"
      }
    },
    {
      "type": "Feature",
      "geometry": {
        "type": "Point",
        "coordinates": [
          77.617036,
          19.11088
        ]
      },
      "properties": {
        "district": "Nanded",
        "dt_code": "511",
        "st_nm": "Maharashtra",
        "st_code": "27"
      }
    },
    {
      "type": "Feature",
      "geometry": {
        "type": "Point",
        "coordinates": [
          81.08673,
          19.569984
        ]
      },
      "properties": {
        "district": "Narayanpur",
        "dt_code": "415",
        "st_nm": "Chhattisgarh",
        "st_code": "22"
      }
    },
    {
      "type": "Feature",
      "geometry": {
        "type": "Point",
        "coordinates": [
          76.677897,
          19.271538
        ]
      },
      "properties": {
        "district": "Parbhani",
        "dt_code": "513",
        "st_nm": "Maharashtra",
        "st_code": "27"
      }
    },
    {
      "type": "Feature",
      "geometry": {
        "type": "Point",
        "coordinates": [
          74.068503,
          18.570762
        ]
      },
      "properties": {
        "district": "Pune",
        "dt_code": "521",
        "st_nm": "Maharashtra",
        "st_code": "27"
      }
    },
    {
      "type": "Feature",
      "geometry": {
        "type": "Point",
        "coordinates": [
          75.8376,
          18.946276
        ]
      },
      "properties": {
        "district": "Bid",
        "dt_code": "523",
        "st_nm": "Maharashtra",
        "st_code": "27"
      }
    },
    {
      "type": "Feature",
      "geometry": {
        "type": "Point",
        "coordinates": [
          72.851164,
          18.962258
        ]
      },
      "properties": {
        "district": "Mumbai",
        "dt_code": "519",
        "st_nm": "Maharashtra",
        "st_code": "27"
      }
    },
    {
      "type": "Feature",
      "geometry": {
        "type": "Point",
        "coordinates": [
          82.71879,
          18.813532
        ]
      },
      "properties": {
        "district": "Koraput",
        "dt_code": "398",
        "st_nm": "Odisha",
        "st_code": "21"
      }
    },
    {
      "type": "Feature",
      "geometry": {
        "type": "Point",
        "coordinates": [
          84.023766,
          18.598297
        ]
      },
      "properties": {
        "district": "Srikakulam",
        "dt_code": "542",
        "st_nm": "Andhra Pradesh",
        "st_code": "37"
      }
    },
    {
      "type": "Feature",
      "geometry": {
        "type": "Point",
        "coordinates": [
          83.38478,
          18.474201
        ]
      },
      "properties": {
        "district": "Vizianagaram",
        "dt_code": "543",
        "st_nm": "Andhra Pradesh",
        "st_code": "37"
      }
    },
    {
      "type": "Feature",
      "geometry": {
        "type": "Point",
        "coordinates": [
          76.759402,
          18.37391
        ]
      },
      "properties": {
        "district": "Latur",
        "dt_code": "524",
        "st_nm": "Maharashtra",
        "st_code": "27"
      }
    },
    {
      "type": "Feature",
      "geometry": {
        "type": "Point",
        "coordinates": [
          76.03765,
          18.188079
        ]
      },
      "properties": {
        "district": "Osmanabad",
        "dt_code": "525",
        "st_nm": "Maharashtra",
        "st_code": "27"
      }
    },
    {
      "type": "Feature",
      "geometry": {
        "type": "Point",
        "coordinates": [
          81.950107,
          18.258599
        ]
      },
      "properties": {
        "district": "Malkangiri",
        "dt_code": "399",
        "st_nm": "Odisha",
        "st_code": "21"
      }
    },
    {
      "type": "Feature",
      "geometry": {
        "type": "Point",
        "coordinates": [
          75.483645,
          17.790177
        ]
      },
      "properties": {
        "district": "Solapur",
        "dt_code": "526",
        "st_nm": "Maharashtra",
        "st_code": "27"
      }
    },
    {
      "type": "Feature",
      "geometry": {
        "type": "Point",
        "coordinates": [
          82.694387,
          17.893688
        ]
      },
      "properties": {
        "district": "Visakhapatnam",
        "dt_code": "544",
        "st_nm": "Andhra Pradesh",
        "st_code": "37"
      }
    },
    {
      "type": "Feature",
      "geometry": {
        "type": "Point",
        "coordinates": [
          77.224346,
          17.951514
        ]
      },
      "properties": {
        "district": "Bidar",
        "dt_code": "558",
        "st_nm": "Karnataka",
        "st_code": "29"
      }
    },
    {
      "type": "Feature",
      "geometry": {
        "type": "Point",
        "coordinates": [
          74.172483,
          17.669555
        ]
      },
      "properties": {
        "district": "Satara",
        "dt_code": "527",
        "st_nm": "Maharashtra",
        "st_code": "27"
      }
    },
    {
      "type": "Feature",
      "geometry": {
        "type": "Point",
        "coordinates": [
          73.455195,
          17.273221
        ]
      },
      "properties": {
        "district": "Ratnagiri",
        "dt_code": "528",
        "st_nm": "Maharashtra",
        "st_code": "27"
      }
    },
    {
      "type": "Feature",
      "geometry": {
        "type": "Point",
        "coordinates": [
          76.868623,
          17.259886
        ]
      },
      "properties": {
        "district": "Kalaburagi",
        "dt_code": "579",
        "st_nm": "Karnataka",
        "st_code": "29"
      }
    },
    {
      "type": "Feature",
      "geometry": {
        "type": "Point",
        "coordinates": [
          74.768136,
          17.113153
        ]
      },
      "properties": {
        "district": "Sangli",
        "dt_code": "531",
        "st_nm": "Maharashtra",
        "st_code": "27"
      }
    },
    {
      "type": "Feature",
      "geometry": {
        "type": "Point",
        "coordinates": [
          74.157672,
          16.470164
        ]
      },
      "properties": {
        "district": "Kolhapur",
        "dt_code": "530",
        "st_nm": "Maharashtra",
        "st_code": "27"
      }
    },
    {
      "type": "Feature",
      "geometry": {
        "type": "Point",
        "coordinates": [
          80.798313,
          16.555644
        ]
      },
      "properties": {
        "district": "Krishna",
        "dt_code": "547",
        "st_nm": "Andhra Pradesh",
        "st_code": "37"
      }
    },
    {
      "type": "Feature",
      "geometry": {
        "type": "Point",
        "coordinates": [
          74.823682,
          16.121201
        ]
      },
      "properties": {
        "district": "Belagavi",
        "dt_code": "555",
        "st_nm": "Karnataka",
        "st_code": "29"
      }
    },
    {
      "type": "Feature",
      "geometry": {
        "type": "Point",
        "coordinates": [
          76.913648,
          16.627076
        ]
      },
      "properties": {
        "district": "Yadgir",
        "dt_code": "580",
        "st_nm": "Karnataka",
        "st_code": "29"
      }
    },
    {
      "type": "Feature",
      "geometry": {
        "type": "Point",
        "coordinates": [
          75.62583,
          16.220685
        ]
      },
      "properties": {
        "district": "Bagalkote",
        "dt_code": "556",
        "st_nm": "Karnataka",
        "st_code": "29"
      }
    },
    {
      "type": "Feature",
      "geometry": {
        "type": "Point",
        "coordinates": [
          73.738371,
          16.132203
        ]
      },
      "properties": {
        "district": "Sindhudurg",
        "dt_code": "529",
        "st_nm": "Maharashtra",
        "st_code": "27"
      }
    },
    {
      "type": "Feature",
      "geometry": {
        "type": "Point",
        "coordinates": [
          80.078627,
          16.293178
        ]
      },
      "properties": {
        "district": "Guntur",
        "dt_code": "548",
        "st_nm": "Andhra Pradesh",
        "st_code": "37"
      }
    },
    {
      "type": "Feature",
      "geometry": {
        "type": "Point",
        "coordinates": [
          81.896776,
          17.268601
        ]
      },
      "properties": {
        "district": "East Godavari",
        "dt_code": "545",
        "st_nm": "Andhra Pradesh",
        "st_code": "37"
      }
    },
    {
      "type": "Feature",
      "geometry": {
        "type": "Point",
        "coordinates": [
          76.89153,
          16.090361
        ]
      },
      "properties": {
        "district": "Raichur",
        "dt_code": "559",
        "st_nm": "Karnataka",
        "st_code": "29"
      }
    },
    {
      "type": "Feature",
      "geometry": {
        "type": "Point",
        "coordinates": [
          79.516277,
          15.616199
        ]
      },
      "properties": {
        "district": "Prakasam",
        "dt_code": "549",
        "st_nm": "Andhra Pradesh",
        "st_code": "37"
      }
    },
    {
      "type": "Feature",
      "geometry": {
        "type": "Point",
        "coordinates": [
          77.999348,
          15.532089
        ]
      },
      "properties": {
        "district": "Kurnool",
        "dt_code": "552",
        "st_nm": "Andhra Pradesh",
        "st_code": "37"
      }
    },
    {
      "type": "Feature",
      "geometry": {
        "type": "Point",
        "coordinates": [
          76.220478,
          15.563044
        ]
      },
      "properties": {
        "district": "Koppal",
        "dt_code": "560",
        "st_nm": "Karnataka",
        "st_code": "29"
      }
    },
    {
      "type": "Feature",
      "geometry": {
        "type": "Point",
        "coordinates": [
          75.664816,
          15.43068
        ]
      },
      "properties": {
        "district": "Gadag",
        "dt_code": "561",
        "st_nm": "Karnataka",
        "st_code": "29"
      }
    },
    {
      "type": "Feature",
      "geometry": {
        "type": "Point",
        "coordinates": [
          73.974238,
          15.580162
        ]
      },
      "properties": {
        "district": "North Goa",
        "dt_code": "585",
        "st_nm": "Goa",
        "st_code": "30"
      }
    },
    {
      "type": "Feature",
      "geometry": {
        "type": "Point",
        "coordinates": [
          76.531537,
          15.109603
        ]
      },
      "properties": {
        "district": "Ballari",
        "dt_code": "565",
        "st_nm": "Karnataka",
        "st_code": "29"
      }
    },
    {
      "type": "Feature",
      "geometry": {
        "type": "Point",
        "coordinates": [
          75.152244,
          15.390009
        ]
      },
      "properties": {
        "district": "Dharwad",
        "dt_code": "562",
        "st_nm": "Karnataka",
        "st_code": "29"
      }
    },
    {
      "type": "Feature",
      "geometry": {
        "type": "Point",
        "coordinates": [
          74.619456,
          14.791838
        ]
      },
      "properties": {
        "district": "Uttara Kannada",
        "dt_code": "563",
        "st_nm": "Karnataka",
        "st_code": "29"
      }
    },
    {
      "type": "Feature",
      "geometry": {
        "type": "Point",
        "coordinates": [
          74.105373,
          15.221929
        ]
      },
      "properties": {
        "district": "South Goa",
        "dt_code": "586",
        "st_nm": "Goa",
        "st_code": "30"
      }
    },
    {
      "type": "Feature",
      "geometry": {
        "type": "Point",
        "coordinates": [
          75.416543,
          14.739193
        ]
      },
      "properties": {
        "district": "Haveri",
        "dt_code": "564",
        "st_nm": "Karnataka",
        "st_code": "29"
      }
    },
    {
      "type": "Feature",
      "geometry": {
        "type": "Point",
        "coordinates": [
          77.572655,
          14.480622
        ]
      },
      "properties": {
        "district": "Anantapur",
        "dt_code": "553",
        "st_nm": "Andhra Pradesh",
        "st_code": "37"
      }
    },
    {
      "type": "Feature",
      "geometry": {
        "type": "Point",
        "coordinates": [
          79.739669,
          14.418429
        ]
      },
      "properties": {
        "district": "S.P.S. Nellore",
        "dt_code": "550",
        "st_nm": "Andhra Pradesh",
        "st_code": "37"
      }
    },
    {
      "type": "Feature",
      "geometry": {
        "type": "Point",
        "coordinates": [
          76.514955,
          14.168606
        ]
      },
      "properties": {
        "district": "Chitradurga",
        "dt_code": "566",
        "st_nm": "Karnataka",
        "st_code": "29"
      }
    },
    {
      "type": "Feature",
      "geometry": {
        "type": "Point",
        "coordinates": [
          75.954034,
          14.408701
        ]
      },
      "properties": {
        "district": "Davanagere",
        "dt_code": "567",
        "st_nm": "Karnataka",
        "st_code": "29"
      }
    },
    {
      "type": "Feature",
      "geometry": {
        "type": "Point",
        "coordinates": [
          75.220471,
          14.043491
        ]
      },
      "properties": {
        "district": "Shivamogga",
        "dt_code": "568",
        "st_nm": "Karnataka",
        "st_code": "29"
      }
    },
    {
      "type": "Feature",
      "geometry": {
        "type": "Point",
        "coordinates": [
          74.872078,
          13.498454
        ]
      },
      "properties": {
        "district": "Udupi",
        "dt_code": "569",
        "st_nm": "Karnataka",
        "st_code": "29"
      }
    },
    {
      "type": "Feature",
      "geometry": {
        "type": "Point",
        "coordinates": [
          75.690126,
          13.454245
        ]
      },
      "properties": {
        "district": "Chikkamagaluru",
        "dt_code": "570",
        "st_nm": "Karnataka",
        "st_code": "29"
      }
    },
    {
      "type": "Feature",
      "geometry": {
        "type": "Point",
        "coordinates": [
          77.835494,
          13.57744
        ]
      },
      "properties": {
        "district": "Chikkaballapura",
        "dt_code": "582",
        "st_nm": "Karnataka",
        "st_code": "29"
      }
    },
    {
      "type": "Feature",
      "geometry": {
        "type": "Point",
        "coordinates": [
          76.108012,
          12.996274
        ]
      },
      "properties": {
        "district": "Hassan",
        "dt_code": "574",
        "st_nm": "Karnataka",
        "st_code": "29"
      }
    },
    {
      "type": "Feature",
      "geometry": {
        "type": "Point",
        "coordinates": [
          78.217839,
          13.140211
        ]
      },
      "properties": {
        "district": "Kolar",
        "dt_code": "581",
        "st_nm": "Karnataka",
        "st_code": "29"
      }
    },
    {
      "type": "Feature",
      "geometry": {
        "type": "Point",
        "coordinates": [
          77.573765,
          13.227101
        ]
      },
      "properties": {
        "district": "Bengaluru Rural",
        "dt_code": "583",
        "st_nm": "Karnataka",
        "st_code": "29"
      }
    },
    {
      "type": "Feature",
      "geometry": {
        "type": "Point",
        "coordinates": [
          75.250498,
          12.852211
        ]
      },
      "properties": {
        "district": "Dakshina Kannada",
        "dt_code": "575",
        "st_nm": "Karnataka",
        "st_code": "29"
      }
    },
    {
      "type": "Feature",
      "geometry": {
        "type": "Point",
        "coordinates": [
          77.593933,
          12.952499
        ]
      },
      "properties": {
        "district": "Bengaluru",
        "dt_code": "572",
        "st_nm": "Karnataka",
        "st_code": "29"
      }
    },
    {
      "type": "Feature",
      "geometry": {
        "type": "Point",
        "coordinates": [
          75.152103,
          12.462582
        ]
      },
      "properties": {
        "district": "Kasaragod",
        "dt_code": "588",
        "st_nm": "Kerala",
        "st_code": "32"
      }
    },
    {
      "type": "Feature",
      "geometry": {
        "type": "Point",
        "coordinates": [
          75.800207,
          12.32515
        ]
      },
      "properties": {
        "district": "Kodagu",
        "dt_code": "576",
        "st_nm": "Karnataka",
        "st_code": "29"
      }
    },
    {
      "type": "Feature",
      "geometry": {
        "type": "Point",
        "coordinates": [
          77.097586,
          11.958835
        ]
      },
      "properties": {
        "district": "Chamarajanagara",
        "dt_code": "578",
        "st_nm": "Karnataka",
        "st_code": "29"
      }
    },
    {
      "type": "Feature",
      "geometry": {
        "type": "Point",
        "coordinates": [
          76.096434,
          11.712762
        ]
      },
      "properties": {
        "district": "Wayanad",
        "dt_code": "590",
        "st_nm": "Kerala",
        "st_code": "32"
      }
    },
    {
      "type": "Feature",
      "geometry": {
        "type": "Point",
        "coordinates": [
          75.832285,
          11.485965
        ]
      },
      "properties": {
        "district": "Kozhikode",
        "dt_code": "591",
        "st_nm": "Kerala",
        "st_code": "32"
      }
    },
    {
      "type": "Feature",
      "geometry": {
        "type": "Point",
        "coordinates": [
          76.153473,
          11.132289
        ]
      },
      "properties": {
        "district": "Malappuram",
        "dt_code": "592",
        "st_nm": "Kerala",
        "st_code": "32"
      }
    },
    {
      "type": "Feature",
      "geometry": {
        "type": "Point",
        "coordinates": [
          76.555716,
          10.794728
        ]
      },
      "properties": {
        "district": "Palakkad",
        "dt_code": "593",
        "st_nm": "Kerala",
        "st_code": "32"
      }
    },
    {
      "type": "Feature",
      "geometry": {
        "type": "Point",
        "coordinates": [
          76.315047,
          10.471422
        ]
      },
      "properties": {
        "district": "Thrissur",
        "dt_code": "594",
        "st_nm": "Kerala",
        "st_code": "32"
      }
    },
    {
      "type": "Feature",
      "geometry": {
        "type": "Point",
        "coordinates": [
          77.05633,
          9.839275
        ]
      },
      "properties": {
        "district": "Idukki",
        "dt_code": "596",
        "st_nm": "Kerala",
        "st_code": "32"
      }
    },
    {
      "type": "Feature",
      "geometry": {
        "type": "Point",
        "coordinates": [
          76.545033,
          10.083022
        ]
      },
      "properties": {
        "district": "Ernakulam",
        "dt_code": "595",
        "st_nm": "Kerala",
        "st_code": "32"
      }
    },
    {
      "type": "Feature",
      "geometry": {
        "type": "Point",
        "coordinates": [
          76.448588,
          9.426069
        ]
      },
      "properties": {
        "district": "Alappuzha",
        "dt_code": "598",
        "st_nm": "Kerala",
        "st_code": "32"
      }
    },
    {
      "type": "Feature",
      "geometry": {
        "type": "Point",
        "coordinates": [
          76.650749,
          9.636886
        ]
      },
      "properties": {
        "district": "Kottayam",
        "dt_code": "597",
        "st_nm": "Kerala",
        "st_code": "32"
      }
    },
    {
      "type": "Feature",
      "geometry": {
        "type": "Point",
        "coordinates": [
          76.926527,
          9.284217
        ]
      },
      "properties": {
        "district": "Pathanamthitta",
        "dt_code": "599",
        "st_nm": "Kerala",
        "st_code": "32"
      }
    },
    {
      "type": "Feature",
      "geometry": {
        "type": "Point",
        "coordinates": [
          76.871376,
          8.961938
        ]
      },
      "properties": {
        "district": "Kollam",
        "dt_code": "600",
        "st_nm": "Kerala",
        "st_code": "32"
      }
    },
    {
      "type": "Feature",
      "geometry": {
        "type": "Point",
        "coordinates": [
          77.012796,
          8.608864
        ]
      },
      "properties": {
        "district": "Thiruvananthapuram",
        "dt_code": "601",
        "st_nm": "Kerala",
        "st_code": "32"
      }
    },
    {
      "type": "Feature",
      "geometry": {
        "type": "Point",
        "coordinates": [
          81.383096,
          16.93702
        ]
      },
      "properties": {
        "district": "West Godavari",
        "dt_code": "546",
        "st_nm": "Andhra Pradesh",
        "st_code": "37"
      }
    },
    {
      "type": "Feature",
      "geometry": {
        "type": "Point",
        "coordinates": [
          81.377317,
          18.863764
        ]
      },
      "properties": {
        "district": "Dakshin Bastar Dantewada",
        "dt_code": "416",
        "st_nm": "Chhattisgarh",
        "st_code": "22"
      }
    },
    {
      "type": "Feature",
      "geometry": {
        "type": "Point",
        "coordinates": [
          81.868082,
          19.081431
        ]
      },
      "properties": {
        "district": "Bastar",
        "dt_code": "414",
        "st_nm": "Chhattisgarh",
        "st_code": "22"
      }
    },
    {
      "type": "Feature",
      "geometry": {
        "type": "Point",
        "coordinates": [
          81.665231,
          19.745793
        ]
      },
      "properties": {
        "district": "Kondagaon",
        "dt_code": "722",
        "st_nm": "Chhattisgarh",
        "st_code": "22"
      }
    },
    {
      "type": "Feature",
      "geometry": {
        "type": "Point",
        "coordinates": [
          82.235142,
          20.447552
        ]
      },
      "properties": {
        "district": "Gariaband",
        "dt_code": "720",
        "st_nm": "Chhattisgarh",
        "st_code": "22"
      }
    },
    {
      "type": "Feature",
      "geometry": {
        "type": "Point",
        "coordinates": [
          81.820595,
          21.285808
        ]
      },
      "properties": {
        "district": "Raipur",
        "dt_code": "410",
        "st_nm": "Chhattisgarh",
        "st_code": "22"
      }
    },
    {
      "type": "Feature",
      "geometry": {
        "type": "Point",
        "coordinates": [
          81.382898,
          21.220261
        ]
      },
      "properties": {
        "district": "Durg",
        "dt_code": "409",
        "st_nm": "Chhattisgarh",
        "st_code": "22"
      }
    },
    {
      "type": "Feature",
      "geometry": {
        "type": "Point",
        "coordinates": [
          73.321965,
          19.361282
        ]
      },
      "properties": {
        "district": "Thane",
        "dt_code": "517",
        "st_nm": "Maharashtra",
        "st_code": "27"
      }
    },
    {
      "type": "Feature",
      "geometry": {
        "type": "Point",
        "coordinates": [
          78.56583,
          19.519771
        ]
      },
      "properties": {
        "district": "Adilabad",
        "dt_code": "532",
        "st_nm": "Telangana",
        "st_code": "36"
      }
    },
    {
      "type": "Feature",
      "geometry": {
        "type": "Point",
        "coordinates": [
          78.470597,
          17.394381
        ]
      },
      "properties": {
        "district": "Hyderabad",
        "dt_code": "536",
        "st_nm": "Telangana",
        "st_code": "36"
      }
    },
    {
      "type": "Feature",
      "geometry": {
        "type": "Point",
        "coordinates": [
          78.875708,
          18.832349
        ]
      },
      "properties": {
        "district": "Jagitial",
        "dt_code": "737",
        "st_nm": "Telangana",
        "st_code": "36"
      }
    },
    {
      "type": "Feature",
      "geometry": {
        "type": "Point",
        "coordinates": [
          79.274442,
          17.734269
        ]
      },
      "properties": {
        "district": "Jangoan",
        "dt_code": "752",
        "st_nm": "Telangana",
        "st_code": "36"
      }
    },
    {
      "type": "Feature",
      "geometry": {
        "type": "Point",
        "coordinates": [
          80.336692,
          18.288946
        ]
      },
      "properties": {
        "district": "Mulugu",
        "dt_code": "780",
        "st_nm": "Telangana",
        "st_code": "36"
      }
    },
    {
      "type": "Feature",
      "geometry": {
        "type": "Point",
        "coordinates": [
          77.781333,
          16.072209
        ]
      },
      "properties": {
        "district": "Jogulamba Gadwal",
        "dt_code": "744",
        "st_nm": "Telangana",
        "st_code": "36"
      }
    },
    {
      "type": "Feature",
      "geometry": {
        "type": "Point",
        "coordinates": [
          78.062187,
          18.324111
        ]
      },
      "properties": {
        "district": "Kamareddy",
        "dt_code": "736",
        "st_nm": "Telangana",
        "st_code": "36"
      }
    },
    {
      "type": "Feature",
      "geometry": {
        "type": "Point",
        "coordinates": [
          79.235719,
          18.378194
        ]
      },
      "properties": {
        "district": "Karimnagar",
        "dt_code": "534",
        "st_nm": "Telangana",
        "st_code": "36"
      }
    },
    {
      "type": "Feature",
      "geometry": {
        "type": "Point",
        "coordinates": [
          80.360528,
          17.199607
        ]
      },
      "properties": {
        "district": "Khammam",
        "dt_code": "541",
        "st_nm": "Telangana",
        "st_code": "36"
      }
    },
    {
      "type": "Feature",
      "geometry": {
        "type": "Point",
        "coordinates": [
          79.416723,
          19.358974
        ]
      },
      "properties": {
        "district": "Kumuram Bheem Asifabad",
        "dt_code": "733",
        "st_nm": "Telangana",
        "st_code": "36"
      }
    },
    {
      "type": "Feature",
      "geometry": {
        "type": "Point",
        "coordinates": [
          79.983484,
          17.667944
        ]
      },
      "properties": {
        "district": "Mahabubabad",
        "dt_code": "751",
        "st_nm": "Telangana",
        "st_code": "36"
      }
    },
    {
      "type": "Feature",
      "geometry": {
        "type": "Point",
        "coordinates": [
          77.989722,
          16.757844
        ]
      },
      "properties": {
        "district": "Mahabubnagar",
        "dt_code": "538",
        "st_nm": "Telangana",
        "st_code": "36"
      }
    },
    {
      "type": "Feature",
      "geometry": {
        "type": "Point",
        "coordinates": [
          79.514234,
          18.99567
        ]
      },
      "properties": {
        "district": "Mancherial",
        "dt_code": "735",
        "st_nm": "Telangana",
        "st_code": "36"
      }
    },
    {
      "type": "Feature",
      "geometry": {
        "type": "Point",
        "coordinates": [
          78.260124,
          17.955141
        ]
      },
      "properties": {
        "district": "Medak",
        "dt_code": "535",
        "st_nm": "Telangana",
        "st_code": "36"
      }
    },
    {
      "type": "Feature",
      "geometry": {
        "type": "Point",
        "coordinates": [
          78.558095,
          17.543307
        ]
      },
      "properties": {
        "district": "Medchal Malkajgiri",
        "dt_code": "742",
        "st_nm": "Telangana",
        "st_code": "36"
      }
    },
    {
      "type": "Feature",
      "geometry": {
        "type": "Point",
        "coordinates": [
          78.587007,
          16.38827
        ]
      },
      "properties": {
        "district": "Nagarkurnool",
        "dt_code": "746",
        "st_nm": "Telangana",
        "st_code": "36"
      }
    },
    {
      "type": "Feature",
      "geometry": {
        "type": "Point",
        "coordinates": [
          79.192812,
          16.875881
        ]
      },
      "properties": {
        "district": "Nalgonda",
        "dt_code": "539",
        "st_nm": "Telangana",
        "st_code": "36"
      }
    },
    {
      "type": "Feature",
      "geometry": {
        "type": "Point",
        "coordinates": [
          78.31502,
          19.113165
        ]
      },
      "properties": {
        "district": "Nirmal",
        "dt_code": "734",
        "st_nm": "Telangana",
        "st_code": "36"
      }
    },
    {
      "type": "Feature",
      "geometry": {
        "type": "Point",
        "coordinates": [
          78.211392,
          18.701414
        ]
      },
      "properties": {
        "district": "Nizamabad",
        "dt_code": "533",
        "st_nm": "Telangana",
        "st_code": "36"
      }
    },
    {
      "type": "Feature",
      "geometry": {
        "type": "Point",
        "coordinates": [
          79.451242,
          18.621127
        ]
      },
      "properties": {
        "district": "Peddapalli",
        "dt_code": "738",
        "st_nm": "Telangana",
        "st_code": "36"
      }
    },
    {
      "type": "Feature",
      "geometry": {
        "type": "Point",
        "coordinates": [
          78.761344,
          18.41624
        ]
      },
      "properties": {
        "district": "Rajanna Sircilla",
        "dt_code": "739",
        "st_nm": "Telangana",
        "st_code": "36"
      }
    },
    {
      "type": "Feature",
      "geometry": {
        "type": "Point",
        "coordinates": [
          78.412207,
          17.131153
        ]
      },
      "properties": {
        "district": "Ranga Reddy",
        "dt_code": "537",
        "st_nm": "Telangana",
        "st_code": "36"
      }
    },
    {
      "type": "Feature",
      "geometry": {
        "type": "Point",
        "coordinates": [
          77.87621,
          17.783176
        ]
      },
      "properties": {
        "district": "Sangareddy",
        "dt_code": "740",
        "st_nm": "Telangana",
        "st_code": "36"
      }
    },
    {
      "type": "Feature",
      "geometry": {
        "type": "Point",
        "coordinates": [
          78.848767,
          18.010201
        ]
      },
      "properties": {
        "district": "Siddipet",
        "dt_code": "741",
        "st_nm": "Telangana",
        "st_code": "36"
      }
    },
    {
      "type": "Feature",
      "geometry": {
        "type": "Point",
        "coordinates": [
          79.754038,
          17.081884
        ]
      },
      "properties": {
        "district": "Suryapet",
        "dt_code": "748",
        "st_nm": "Telangana",
        "st_code": "36"
      }
    },
    {
      "type": "Feature",
      "geometry": {
        "type": "Point",
        "coordinates": [
          77.745984,
          17.253433
        ]
      },
      "properties": {
        "district": "Vikarabad",
        "dt_code": "743",
        "st_nm": "Telangana",
        "st_code": "36"
      }
    },
    {
      "type": "Feature",
      "geometry": {
        "type": "Point",
        "coordinates": [
          78.037342,
          16.294844
        ]
      },
      "properties": {
        "district": "Wanaparthy",
        "dt_code": "745",
        "st_nm": "Telangana",
        "st_code": "36"
      }
    },
    {
      "type": "Feature",
      "geometry": {
        "type": "Point",
        "coordinates": [
          79.746742,
          17.919909
        ]
      },
      "properties": {
        "district": "Warangal Rural",
        "dt_code": "749",
        "st_nm": "Telangana",
        "st_code": "36"
      }
    },
    {
      "type": "Feature",
      "geometry": {
        "type": "Point",
        "coordinates": [
          79.479446,
          18.024593
        ]
      },
      "properties": {
        "district": "Warangal Urban",
        "dt_code": "540",
        "st_nm": "Telangana",
        "st_code": "36"
      }
    },
    {
      "type": "Feature",
      "geometry": {
        "type": "Point",
        "coordinates": [
          78.980777,
          17.451672
        ]
      },
      "properties": {
        "district": "Yadadri Bhuvanagiri",
        "dt_code": "747",
        "st_nm": "Telangana",
        "st_code": "36"
      }
    },
    {
      "type": "Feature",
      "geometry": {
        "type": "Point",
        "coordinates": [
          88.536603,
          22.067529
        ]
      },
      "properties": {
        "district": "South 24 Parganas",
        "dt_code": "343",
        "st_nm": "West Bengal",
        "st_code": "19"
      }
    },
    {
      "type": "Feature",
      "geometry": {
        "type": "Point",
        "coordinates": [
          71.249407,
          21.424974
        ]
      },
      "properties": {
        "district": "Amreli",
        "dt_code": "480",
        "st_nm": "Gujarat",
        "st_code": "24"
      }
    },
    {
      "type": "Feature",
      "geometry": {
        "type": "Point",
        "coordinates": [
          84.905217,
          20.986614
        ]
      },
      "properties": {
        "district": "Anugul",
        "dt_code": "384",
        "st_nm": "Odisha",
        "st_code": "21"
      }
    },
    {
      "type": "Feature",
      "geometry": {
        "type": "Point",
        "coordinates": [
          73.700692,
          20.804008
        ]
      },
      "properties": {
        "district": "The Dangs",
        "dt_code": "489",
        "st_nm": "Gujarat",
        "st_code": "24"
      }
    },
    {
      "type": "Feature",
      "geometry": {
        "type": "Point",
        "coordinates": [
          81.808972,
          20.555908
        ]
      },
      "properties": {
        "district": "Dhamtari",
        "dt_code": "412",
        "st_nm": "Chhattisgarh",
        "st_code": "22"
      }
    },
    {
      "type": "Feature",
      "geometry": {
        "type": "Point",
        "coordinates": [
          86.612899,
          20.55311
        ]
      },
      "properties": {
        "district": "Kendrapara",
        "dt_code": "379",
        "st_nm": "Odisha",
        "st_code": "21"
      }
    },
    {
      "type": "Feature",
      "geometry": {
        "type": "Point",
        "coordinates": [
          73.070254,
          20.194828
        ]
      },
      "properties": {
        "district": "Dadra and Nagar Haveli",
        "dt_code": "496",
        "st_nm": "Dadra and Nagar Haveli",
        "st_code": "26"
      }
    },
    {
      "type": "Feature",
      "geometry": {
        "type": "Point",
        "coordinates": [
          73.01923,
          19.794
        ]
      },
      "properties": {
        "district": "Palghar",
        "dt_code": "732",
        "st_nm": "Maharashtra",
        "st_code": "27"
      }
    },
    {
      "type": "Feature",
      "geometry": {
        "type": "Point",
        "coordinates": [
          84.672875,
          19.625251
        ]
      },
      "properties": {
        "district": "Ganjam",
        "dt_code": "388",
        "st_nm": "Odisha",
        "st_code": "21"
      }
    },
    {
      "type": "Feature",
      "geometry": {
        "type": "Point",
        "coordinates": [
          84.161061,
          19.184973
        ]
      },
      "properties": {
        "district": "Gajapati",
        "dt_code": "389",
        "st_nm": "Odisha",
        "st_code": "21"
      }
    },
    {
      "type": "Feature",
      "geometry": {
        "type": "Point",
        "coordinates": [
          78.780695,
          14.463962
        ]
      },
      "properties": {
        "district": "Y.S.R.",
        "dt_code": "551",
        "st_nm": "Andhra Pradesh",
        "st_code": "37"
      }
    },
    {
      "type": "Feature",
      "geometry": {
        "type": "Point",
        "coordinates": [
          76.94592,
          13.519909
        ]
      },
      "properties": {
        "district": "Tumakuru",
        "dt_code": "571",
        "st_nm": "Karnataka",
        "st_code": "29"
      }
    },
    {
      "type": "Feature",
      "geometry": {
        "type": "Point",
        "coordinates": [
          79.005636,
          13.464687
        ]
      },
      "properties": {
        "district": "Chittoor",
        "dt_code": "554",
        "st_nm": "Andhra Pradesh",
        "st_code": "37"
      }
    },
    {
      "type": "Feature",
      "geometry": {
        "type": "Point",
        "coordinates": [
          77.335402,
          12.680527
        ]
      },
      "properties": {
        "district": "Ramanagara",
        "dt_code": "584",
        "st_nm": "Karnataka",
        "st_code": "29"
      }
    },
    {
      "type": "Feature",
      "geometry": {
        "type": "Point",
        "coordinates": [
          76.798035,
          12.611224
        ]
      },
      "properties": {
        "district": "Mandya",
        "dt_code": "573",
        "st_nm": "Karnataka",
        "st_code": "29"
      }
    },
    {
      "type": "Feature",
      "geometry": {
        "type": "Point",
        "coordinates": [
          76.440832,
          12.211079
        ]
      },
      "properties": {
        "district": "Mysuru",
        "dt_code": "577",
        "st_nm": "Karnataka",
        "st_code": "29"
      }
    },
    {
      "type": "Feature",
      "geometry": {
        "type": "Point",
        "coordinates": [
          75.523876,
          11.999733
        ]
      },
      "properties": {
        "district": "Kannur",
        "dt_code": "589",
        "st_nm": "Kerala",
        "st_code": "32"
      }
    },
    {
      "type": "Feature",
      "geometry": {
        "type": "Point",
        "coordinates": [
          79.736244,
          11.910947
        ]
      },
      "properties": {
        "district": "Puducherry",
        "dt_code": "635",
        "st_nm": "Puducherry",
        "st_code": "34"
      }
    },
    {
      "type": "Feature",
      "geometry": {
        "type": "Point",
        "coordinates": [
          81.188608,
          20.741435
        ]
      },
      "properties": {
        "district": "Balod",
        "dt_code": "719",
        "st_nm": "Chhattisgarh",
        "st_code": "22"
      }
    },
    {
      "type": "Feature",
      "geometry": {
        "type": "Point",
        "coordinates": [
          80.709782,
          17.688192
        ]
      },
      "properties": {
        "district": "Bhadradri Kothagudem",
        "dt_code": "753",
        "st_nm": "Telangana",
        "st_code": "36"
      }
    },
    {
      "type": "Feature",
      "geometry": {
        "type": "Point",
        "coordinates": [
          73.242272,
          22.248938
        ]
      },
      "properties": {
        "district": "Vadodara",
        "dt_code": "486",
        "st_nm": "Gujarat",
        "st_code": "24"
      }
    },
    {
      "type": "Feature",
      "geometry": {
        "type": "Point",
        "coordinates": [
          87.417037,
          22.43882
        ]
      },
      "properties": {
        "district": "Medinipur West",
        "dt_code": "344",
        "st_nm": "West Bengal",
        "st_code": "19"
      }
    },
    {
      "type": "Feature",
      "geometry": {
        "type": "Point",
        "coordinates": [
          79.689236,
          22.317068
        ]
      },
      "properties": {
        "district": "Seoni",
        "dt_code": "456",
        "st_nm": "Madhya Pradesh",
        "st_code": "23"
      }
    },
    {
      "type": "Feature",
      "geometry": {
        "type": "Point",
        "coordinates": [
          74.364421,
          22.314907
        ]
      },
      "properties": {
        "district": "Alirajpur",
        "dt_code": "465",
        "st_nm": "Madhya Pradesh",
        "st_code": "23"
      }
    },
    {
      "type": "Feature",
      "geometry": {
        "type": "Point",
        "coordinates": [
          78.85421,
          22.122928
        ]
      },
      "properties": {
        "district": "Chhindwara",
        "dt_code": "455",
        "st_nm": "Madhya Pradesh",
        "st_code": "23"
      }
    },
    {
      "type": "Feature",
      "geometry": {
        "type": "Point",
        "coordinates": [
          77.123476,
          22.232281
        ]
      },
      "properties": {
        "district": "Harda",
        "dt_code": "448",
        "st_nm": "Madhya Pradesh",
        "st_code": "23"
      }
    },
    {
      "type": "Feature",
      "geometry": {
        "type": "Point",
        "coordinates": [
          75.771618,
          21.918911
        ]
      },
      "properties": {
        "district": "West Nimar",
        "dt_code": "440",
        "st_nm": "Madhya Pradesh",
        "st_code": "23"
      }
    },
    {
      "type": "Feature",
      "geometry": {
        "type": "Point",
        "coordinates": [
          87.771999,
          22.031448
        ]
      },
      "properties": {
        "district": "Medinipur East",
        "dt_code": "345",
        "st_nm": "West Bengal",
        "st_code": "19"
      }
    },
    {
      "type": "Feature",
      "geometry": {
        "type": "Point",
        "coordinates": [
          86.409308,
          21.895862
        ]
      },
      "properties": {
        "district": "Mayurbhanj",
        "dt_code": "376",
        "st_nm": "Odisha",
        "st_code": "21"
      }
    },
    {
      "type": "Feature",
      "geometry": {
        "type": "Point",
        "coordinates": [
          72.935087,
          21.786139
        ]
      },
      "properties": {
        "district": "Bharuch",
        "dt_code": "488",
        "st_nm": "Gujarat",
        "st_code": "24"
      }
    },
    {
      "type": "Feature",
      "geometry": {
        "type": "Point",
        "coordinates": [
          84.509024,
          22.080697
        ]
      },
      "properties": {
        "district": "Sundargarh",
        "dt_code": "374",
        "st_nm": "Odisha",
        "st_code": "21"
      }
    },
    {
      "type": "Feature",
      "geometry": {
        "type": "Point",
        "coordinates": [
          81.222705,
          22.091835
        ]
      },
      "properties": {
        "district": "Kabeerdham",
        "dt_code": "407",
        "st_nm": "Chhattisgarh",
        "st_code": "22"
      }
    },
    {
      "type": "Feature",
      "geometry": {
        "type": "Point",
        "coordinates": [
          76.567652,
          21.934648
        ]
      },
      "properties": {
        "district": "East Nimar",
        "dt_code": "466",
        "st_nm": "Madhya Pradesh",
        "st_code": "23"
      }
    },
    {
      "type": "Feature",
      "geometry": {
        "type": "Point",
        "coordinates": [
          69.77873,
          21.654644
        ]
      },
      "properties": {
        "district": "Porbandar",
        "dt_code": "478",
        "st_nm": "Gujarat",
        "st_code": "24"
      }
    },
    {
      "type": "Feature",
      "geometry": {
        "type": "Point",
        "coordinates": [
          80.358674,
          21.880403
        ]
      },
      "properties": {
        "district": "Balaghat",
        "dt_code": "457",
        "st_nm": "Madhya Pradesh",
        "st_code": "23"
      }
    },
    {
      "type": "Feature",
      "geometry": {
        "type": "Point",
        "coordinates": [
          73.644918,
          21.73752
        ]
      },
      "properties": {
        "district": "Narmada",
        "dt_code": "487",
        "st_nm": "Gujarat",
        "st_code": "24"
      }
    },
    {
      "type": "Feature",
      "geometry": {
        "type": "Point",
        "coordinates": [
          75.021427,
          21.788509
        ]
      },
      "properties": {
        "district": "Barwani",
        "dt_code": "441",
        "st_nm": "Madhya Pradesh",
        "st_code": "23"
      }
    },
    {
      "type": "Feature",
      "geometry": {
        "type": "Point",
        "coordinates": [
          82.734558,
          21.92859
        ]
      },
      "properties": {
        "district": "Janjgir Champa",
        "dt_code": "405",
        "st_nm": "Chhattisgarh",
        "st_code": "22"
      }
    },
    {
      "type": "Feature",
      "geometry": {
        "type": "Point",
        "coordinates": [
          74.216411,
          21.549818
        ]
      },
      "properties": {
        "district": "Nandurbar",
        "dt_code": "497",
        "st_nm": "Maharashtra",
        "st_code": "27"
      }
    },
    {
      "type": "Feature",
      "geometry": {
        "type": "Point",
        "coordinates": [
          85.703881,
          21.53726
        ]
      },
      "properties": {
        "district": "Kendujhar",
        "dt_code": "375",
        "st_nm": "Odisha",
        "st_code": "21"
      }
    },
    {
      "type": "Feature",
      "geometry": {
        "type": "Point",
        "coordinates": [
          86.913413,
          21.491492
        ]
      },
      "properties": {
        "district": "Baleshwar",
        "dt_code": "377",
        "st_nm": "Odisha",
        "st_code": "21"
      }
    },
    {
      "type": "Feature",
      "geometry": {
        "type": "Point",
        "coordinates": [
          83.947953,
          21.806494
        ]
      },
      "properties": {
        "district": "Jharsuguda",
        "dt_code": "371",
        "st_nm": "Odisha",
        "st_code": "21"
      }
    },
    {
      "type": "Feature",
      "geometry": {
        "type": "Point",
        "coordinates": [
          81.525012,
          21.708535
        ]
      },
      "properties": {
        "district": "Bametara",
        "dt_code": "718",
        "st_nm": "Chhattisgarh",
        "st_code": "22"
      }
    },
    {
      "type": "Feature",
      "geometry": {
        "type": "Point",
        "coordinates": [
          80.820193,
          21.039815
        ]
      },
      "properties": {
        "district": "Rajnandgaon",
        "dt_code": "408",
        "st_nm": "Chhattisgarh",
        "st_code": "22"
      }
    },
    {
      "type": "Feature",
      "geometry": {
        "type": "Point",
        "coordinates": [
          77.571242,
          21.187316
        ]
      },
      "properties": {
        "district": "Amravati",
        "dt_code": "503",
        "st_nm": "Maharashtra",
        "st_code": "27"
      }
    },
    {
      "type": "Feature",
      "geometry": {
        "type": "Point",
        "coordinates": [
          73.075964,
          21.266604
        ]
      },
      "properties": {
        "district": "Surat",
        "dt_code": "492",
        "st_nm": "Gujarat",
        "st_code": "24"
      }
    },
    {
      "type": "Feature",
      "geometry": {
        "type": "Point",
        "coordinates": [
          74.600036,
          21.110535
        ]
      },
      "properties": {
        "district": "Dhule",
        "dt_code": "498",
        "st_nm": "Maharashtra",
        "st_code": "27"
      }
    },
    {
      "type": "Feature",
      "geometry": {
        "type": "Point",
        "coordinates": [
          73.626663,
          21.191382
        ]
      },
      "properties": {
        "district": "Tapi",
        "dt_code": "493",
        "st_nm": "Gujarat",
        "st_code": "24"
      }
    },
    {
      "type": "Feature",
      "geometry": {
        "type": "Point",
        "coordinates": [
          83.349095,
          21.219254
        ]
      },
      "properties": {
        "district": "Bargarh",
        "dt_code": "370",
        "st_nm": "Odisha",
        "st_code": "21"
      }
    },
    {
      "type": "Feature",
      "geometry": {
        "type": "Point",
        "coordinates": [
          79.085121,
          21.178257
        ]
      },
      "properties": {
        "district": "Nagpur",
        "dt_code": "505",
        "st_nm": "Maharashtra",
        "st_code": "27"
      }
    },
    {
      "type": "Feature",
      "geometry": {
        "type": "Point",
        "coordinates": [
          82.327585,
          21.582522
        ]
      },
      "properties": {
        "district": "Baloda Bazar",
        "dt_code": "721",
        "st_nm": "Chhattisgarh",
        "st_code": "22"
      }
    },
    {
      "type": "Feature",
      "geometry": {
        "type": "Point",
        "coordinates": [
          81.730503,
          22.241753
        ]
      },
      "properties": {
        "district": "Mungeli",
        "dt_code": "717",
        "st_nm": "Chhattisgarh",
        "st_code": "22"
      }
    },
    {
      "type": "Feature",
      "geometry": {
        "type": "Point",
        "coordinates": [
          71.698346,
          22.115997
        ]
      },
      "properties": {
        "district": "Botad",
        "dt_code": "726",
        "st_nm": "Gujarat",
        "st_code": "24"
      }
    },
    {
      "type": "Feature",
      "geometry": {
        "type": "Point",
        "coordinates": [
          73.873204,
          22.219671
        ]
      },
      "properties": {
        "district": "Chota Udaipur",
        "dt_code": "731",
        "st_nm": "Gujarat",
        "st_code": "24"
      }
    },
    {
      "type": "Feature",
      "geometry": {
        "type": "Point",
        "coordinates": [
          70.776757,
          20.964832
        ]
      },
      "properties": {
        "district": "Gir Somnath",
        "dt_code": "729",
        "st_nm": "Gujarat",
        "st_code": "24"
      }
    },
    {
      "type": "Feature",
      "geometry": {
        "type": "Point",
        "coordinates": [
          86.956517,
          22.36311
        ]
      },
      "properties": {
        "district": "Jhargram",
        "dt_code": "776",
        "st_nm": "West Bengal",
        "st_code": "19"
      }
    },
    {
      "type": "Feature",
      "geometry": {
        "type": "Point",
        "coordinates": [
          70.745516,
          22.021339
        ]
      },
      "properties": {
        "district": "Rajkot",
        "dt_code": "476",
        "st_nm": "Gujarat",
        "st_code": "24"
      }
    },
    {
      "type": "Feature",
      "geometry": {
        "type": "Point",
        "coordinates": [
          71.912145,
          21.584519
        ]
      },
      "properties": {
        "district": "Bhavnagar",
        "dt_code": "481",
        "st_nm": "Gujarat",
        "st_code": "24"
      }
    },
    {
      "type": "Feature",
      "geometry": {
        "type": "Point",
        "coordinates": [
          77.871091,
          21.878698
        ]
      },
      "properties": {
        "district": "Betul",
        "dt_code": "447",
        "st_nm": "Madhya Pradesh",
        "st_code": "23"
      }
    },
    {
      "type": "Feature",
      "geometry": {
        "type": "Point",
        "coordinates": [
          70.412821,
          21.371991
        ]
      },
      "properties": {
        "district": "Junagadh",
        "dt_code": "479",
        "st_nm": "Gujarat",
        "st_code": "24"
      }
    },
    {
      "type": "Feature",
      "geometry": {
        "type": "Point",
        "coordinates": [
          84.786284,
          21.467442
        ]
      },
      "properties": {
        "district": "Debagarh",
        "dt_code": "373",
        "st_nm": "Odisha",
        "st_code": "21"
      }
    },
    {
      "type": "Feature",
      "geometry": {
        "type": "Point",
        "coordinates": [
          70.208285,
          22.33264
        ]
      },
      "properties": {
        "district": "Jamnagar",
        "dt_code": "477",
        "st_nm": "Gujarat",
        "st_code": "24"
      }
    },
    {
      "type": "Feature",
      "geometry": {
        "type": "Point",
        "coordinates": [
          69.466031,
          22.123621
        ]
      },
      "properties": {
        "district": "Devbhumi Dwarka",
        "dt_code": "728",
        "st_nm": "Gujarat",
        "st_code": "24"
      }
    },
    {
      "type": "Feature",
      "geometry": {
        "type": "Point",
        "coordinates": [
          75.280991,
          20.028619
        ]
      },
      "properties": {
        "district": "Aurangabad",
        "dt_code": "515",
        "st_nm": "Maharashtra",
        "st_code": "27"
      }
    },
    {
      "type": "Feature",
      "geometry": {
        "type": "Point",
        "coordinates": [
          75.95267,
          16.793876
        ]
      },
      "properties": {
        "district": "Vijayapura",
        "dt_code": "557",
        "st_nm": "Karnataka",
        "st_code": "29"
      }
    },
    {
      "type": "Feature",
      "geometry": {
        "type": "Point",
        "coordinates": [
          80.775758,
          18.841887
        ]
      },
      "properties": {
        "district": "Bijapur",
        "dt_code": "417",
        "st_nm": "Chhattisgarh",
        "st_code": "22"
      }
    },
    {
      "type": "Feature",
      "geometry": {
        "type": "Point",
        "coordinates": [
          73.217376,
          18.52145
        ]
      },
      "properties": {
        "district": "Raigarh",
        "dt_code": "520",
        "st_nm": "Maharashtra",
        "st_code": "27"
      }
    },
    {
      "type": "Feature",
      "geometry": {
        "type": "Point",
        "coordinates": [
          83.303633,
          22.084484
        ]
      },
      "properties": {
        "district": "Raigarh",
        "dt_code": "403",
        "st_nm": "Chhattisgarh",
        "st_code": "22"
      }
    },
    {
      "type": "Feature",
      "geometry": {
        "type": "Point",
        "coordinates": [
          82.072968,
          22.40586
        ]
      },
      "properties": {
        "district": "Bilaspur",
        "dt_code": "406",
        "st_nm": "Chhattisgarh",
        "st_code": "22"
      }
    },
    {
      "type": "Feature",
      "geometry": {
        "type": "Point",
        "coordinates": [
          79.803239,
          10.933589
        ]
      },
      "properties": {
        "district": "Karaikal",
        "dt_code": "637",
        "st_nm": "Puducherry",
        "st_code": "34"
      }
    },
    {
      "type": "Feature",
      "geometry": {
        "type": "Point",
        "coordinates": [
          75.539729,
          11.730981
        ]
      },
      "properties": {
        "district": "Mahe",
        "dt_code": "636",
        "st_nm": "Puducherry",
        "st_code": "34"
      }
    },
    {
      "type": "Feature",
      "geometry": {
        "type": "Point",
        "coordinates": [
          82.254085,
          16.722299
        ]
      },
      "properties": {
        "district": "Yanam",
        "dt_code": "634",
        "st_nm": "Puducherry",
        "st_code": "34"
      }
    },
    {
      "type": "Feature",
      "geometry": {
        "type": "Point",
        "coordinates": [
          84.274443,
          21.4512
        ]
      },
      "properties": {
        "district": "Sambalpur",
        "dt_code": "372",
        "st_nm": "Odisha",
        "st_code": "21"
      }
    },
    {
      "type": "Feature",
      "geometry": {
        "type": "Point",
        "coordinates": [
          73.092124,
          20.815084
        ]
      },
      "properties": {
        "district": "Navsari",
        "dt_code": "490",
        "st_nm": "Gujarat",
        "st_code": "24"
      }
    },
    {
      "type": "Feature",
      "geometry": {
        "type": "Point",
        "coordinates": [
          73.016614,
          10.251068
        ]
      },
      "properties": {
        "district": "Lakshadweep",
        "dt_code": "587",
        "st_nm": "Lakshadweep",
        "st_code": "31"
      }
    },
    {
      "type": "Feature",
      "geometry": {
        "type": "Point",
        "coordinates": [
          72.857534,
          20.414613
        ]
      },
      "properties": {
        "district": "Daman",
        "dt_code": "495",
        "st_nm": "Daman and Diu",
        "st_code": "25"
      }
    },
    {
      "type": "Feature",
      "geometry": {
        "type": "Point",
        "coordinates": [
          70.938163,
          20.719617
        ]
      },
      "properties": {
        "district": "Diu",
        "dt_code": "494",
        "st_nm": "Daman and Diu",
        "st_code": "25"
      }
    },
    {
      "type": "Feature",
      "geometry": {
        "type": "Point",
        "coordinates": [
          72.884202,
          19.132089
        ]
      },
      "properties": {
        "district": "Mumbai Suburban",
        "dt_code": "518",
        "st_nm": "Maharashtra",
        "st_code": "27"
      }
    },
    {
      "type": "Feature",
      "geometry": {
        "type": "Point",
        "coordinates": [
          79.925436,
          18.502244
        ]
      },
      "properties": {
        "district": "Jayashankar",
        "dt_code": "750",
        "st_nm": "Telangana",
        "st_code": "36"
      }
    },
    {
      "type": "Feature",
      "geometry": {
        "type": "Point",
        "coordinates": [
          77.580862,
          16.644305
        ]
      },
      "properties": {
        "district": "Narayanpet",
        "dt_code": "781",
        "st_nm": "Telangana",
        "st_code": "36"
      }
    },
    {
      "type": "Feature",
      "geometry": {
        "type": "Point",
        "coordinates": [
          81.347791,
          18.256424
        ]
      },
      "properties": {
        "district": "Sukma",
        "dt_code": "723",
        "st_nm": "Chhattisgarh",
        "st_code": "22"
      }
    },
    {
      "type": "Feature",
      "geometry": {
        "type": "Point",
        "coordinates": [
          93.932958,
          28.291029
        ]
      },
      "properties": {
        "district": "Upper Subansiri",
        "dt_code": "249",
        "st_nm": "Arunachal Pradesh",
        "st_code": "12"
      }
    },
    {
      "type": "Feature",
      "geometry": {
        "type": "Point",
        "coordinates": [
          96.824349,
          28.066094
        ]
      },
      "properties": {
        "district": "Anjaw",
        "dt_code": "260",
        "st_nm": "Arunachal Pradesh",
        "st_code": "12"
      }
    },
    {
      "type": "Feature",
      "geometry": {
        "type": "Point",
        "coordinates": [
          95.61957,
          27.579868
        ]
      },
      "properties": {
        "district": "Tinsukia",
        "dt_code": "309",
        "st_nm": "Assam",
        "st_code": "18"
      }
    },
    {
      "type": "Feature",
      "geometry": {
        "type": "Point",
        "coordinates": [
          94.77597,
          27.590573
        ]
      },
      "properties": {
        "district": "Dhemaji",
        "dt_code": "308",
        "st_nm": "Assam",
        "st_code": "18"
      }
    },
    {
      "type": "Feature",
      "geometry": {
        "type": "Point",
        "coordinates": [
          96.340635,
          27.363155
        ]
      },
      "properties": {
        "district": "Changlang",
        "dt_code": "253",
        "st_nm": "Arunachal Pradesh",
        "st_code": "12"
      }
    },
    {
      "type": "Feature",
      "geometry": {
        "type": "Point",
        "coordinates": [
          95.05317,
          27.366451
        ]
      },
      "properties": {
        "district": "Dibrugarh",
        "dt_code": "310",
        "st_nm": "Assam",
        "st_code": "18"
      }
    },
    {
      "type": "Feature",
      "geometry": {
        "type": "Point",
        "coordinates": [
          91.950047,
          27.661831
        ]
      },
      "properties": {
        "district": "Tawang",
        "dt_code": "245",
        "st_nm": "Arunachal Pradesh",
        "st_code": "12"
      }
    },
    {
      "type": "Feature",
      "geometry": {
        "type": "Point",
        "coordinates": [
          93.593833,
          27.289749
        ]
      },
      "properties": {
        "district": "Papum Pare",
        "dt_code": "248",
        "st_nm": "Arunachal Pradesh",
        "st_code": "12"
      }
    },
    {
      "type": "Feature",
      "geometry": {
        "type": "Point",
        "coordinates": [
          94.140843,
          27.174731
        ]
      },
      "properties": {
        "district": "Lakhimpur",
        "dt_code": "307",
        "st_nm": "Assam",
        "st_code": "18"
      }
    },
    {
      "type": "Feature",
      "geometry": {
        "type": "Point",
        "coordinates": [
          95.531413,
          27.027622
        ]
      },
      "properties": {
        "district": "Tirap",
        "dt_code": "254",
        "st_nm": "Arunachal Pradesh",
        "st_code": "12"
      }
    },
    {
      "type": "Feature",
      "geometry": {
        "type": "Point",
        "coordinates": [
          94.660289,
          26.970159
        ]
      },
      "properties": {
        "district": "Sivasagar",
        "dt_code": "311",
        "st_nm": "Assam",
        "st_code": "18"
      }
    },
    {
      "type": "Feature",
      "geometry": {
        "type": "Point",
        "coordinates": [
          94.264591,
          26.711414
        ]
      },
      "properties": {
        "district": "Jorhat",
        "dt_code": "312",
        "st_nm": "Assam",
        "st_code": "18"
      }
    },
    {
      "type": "Feature",
      "geometry": {
        "type": "Point",
        "coordinates": [
          95.017776,
          26.684509
        ]
      },
      "properties": {
        "district": "Mon",
        "dt_code": "261",
        "st_nm": "Nagaland",
        "st_code": "13"
      }
    },
    {
      "type": "Feature",
      "geometry": {
        "type": "Point",
        "coordinates": [
          92.698841,
          26.756047
        ]
      },
      "properties": {
        "district": "Sonitpur",
        "dt_code": "306",
        "st_nm": "Assam",
        "st_code": "18"
      }
    },
    {
      "type": "Feature",
      "geometry": {
        "type": "Point",
        "coordinates": [
          93.834583,
          26.476186
        ]
      },
      "properties": {
        "district": "Golaghat",
        "dt_code": "313",
        "st_nm": "Assam",
        "st_code": "18"
      }
    },
    {
      "type": "Feature",
      "geometry": {
        "type": "Point",
        "coordinates": [
          94.797437,
          26.559092
        ]
      },
      "properties": {
        "district": "Longleng",
        "dt_code": "268",
        "st_nm": "Nagaland",
        "st_code": "13"
      }
    },
    {
      "type": "Feature",
      "geometry": {
        "type": "Point",
        "coordinates": [
          94.528582,
          26.471809
        ]
      },
      "properties": {
        "district": "Mokokchung",
        "dt_code": "262",
        "st_nm": "Nagaland",
        "st_code": "13"
      }
    },
    {
      "type": "Feature",
      "geometry": {
        "type": "Point",
        "coordinates": [
          92.031569,
          26.730319
        ]
      },
      "properties": {
        "district": "Udalguri",
        "dt_code": "326",
        "st_nm": "Assam",
        "st_code": "18"
      }
    },
    {
      "type": "Feature",
      "geometry": {
        "type": "Point",
        "coordinates": [
          90.599622,
          26.66013
        ]
      },
      "properties": {
        "district": "Chirang",
        "dt_code": "320",
        "st_nm": "Assam",
        "st_code": "18"
      }
    },
    {
      "type": "Feature",
      "geometry": {
        "type": "Point",
        "coordinates": [
          91.353866,
          26.661048
        ]
      },
      "properties": {
        "district": "Baksa",
        "dt_code": "324",
        "st_nm": "Assam",
        "st_code": "18"
      }
    },
    {
      "type": "Feature",
      "geometry": {
        "type": "Point",
        "coordinates": [
          92.754734,
          26.36276
        ]
      },
      "properties": {
        "district": "Nagaon",
        "dt_code": "305",
        "st_nm": "Assam",
        "st_code": "18"
      }
    },
    {
      "type": "Feature",
      "geometry": {
        "type": "Point",
        "coordinates": [
          90.117067,
          26.493421
        ]
      },
      "properties": {
        "district": "Kokrajhar",
        "dt_code": "300",
        "st_nm": "Assam",
        "st_code": "18"
      }
    },
    {
      "type": "Feature",
      "geometry": {
        "type": "Point",
        "coordinates": [
          92.029538,
          26.447334
        ]
      },
      "properties": {
        "district": "Darrang",
        "dt_code": "325",
        "st_nm": "Assam",
        "st_code": "18"
      }
    },
    {
      "type": "Feature",
      "geometry": {
        "type": "Point",
        "coordinates": [
          94.888583,
          26.176567
        ]
      },
      "properties": {
        "district": "Tuensang",
        "dt_code": "267",
        "st_nm": "Nagaland",
        "st_code": "13"
      }
    },
    {
      "type": "Feature",
      "geometry": {
        "type": "Point",
        "coordinates": [
          91.00385,
          26.339822
        ]
      },
      "properties": {
        "district": "Barpeta",
        "dt_code": "303",
        "st_nm": "Assam",
        "st_code": "18"
      }
    },
    {
      "type": "Feature",
      "geometry": {
        "type": "Point",
        "coordinates": [
          91.383061,
          26.370968
        ]
      },
      "properties": {
        "district": "Nalbari",
        "dt_code": "323",
        "st_nm": "Assam",
        "st_code": "18"
      }
    },
    {
      "type": "Feature",
      "geometry": {
        "type": "Point",
        "coordinates": [
          92.284461,
          26.281684
        ]
      },
      "properties": {
        "district": "Morigaon",
        "dt_code": "304",
        "st_nm": "Assam",
        "st_code": "18"
      }
    },
    {
      "type": "Feature",
      "geometry": {
        "type": "Point",
        "coordinates": [
          91.415547,
          26.0997
        ]
      },
      "properties": {
        "district": "Kamrup",
        "dt_code": "321",
        "st_nm": "Assam",
        "st_code": "18"
      }
    },
    {
      "type": "Feature",
      "geometry": {
        "type": "Point",
        "coordinates": [
          90.618179,
          26.359043
        ]
      },
      "properties": {
        "district": "Bongaigaon",
        "dt_code": "319",
        "st_nm": "Assam",
        "st_code": "18"
      }
    },
    {
      "type": "Feature",
      "geometry": {
        "type": "Point",
        "coordinates": [
          90.032166,
          26.166782
        ]
      },
      "properties": {
        "district": "Dhubri",
        "dt_code": "301",
        "st_nm": "Assam",
        "st_code": "18"
      }
    },
    {
      "type": "Feature",
      "geometry": {
        "type": "Point",
        "coordinates": [
          91.890089,
          26.130374
        ]
      },
      "properties": {
        "district": "Kamrup Metropolitan",
        "dt_code": "322",
        "st_nm": "Assam",
        "st_code": "18"
      }
    },
    {
      "type": "Feature",
      "geometry": {
        "type": "Point",
        "coordinates": [
          94.822549,
          25.846518
        ]
      },
      "properties": {
        "district": "Kiphire",
        "dt_code": "269",
        "st_nm": "Nagaland",
        "st_code": "13"
      }
    },
    {
      "type": "Feature",
      "geometry": {
        "type": "Point",
        "coordinates": [
          90.604733,
          26.051048
        ]
      },
      "properties": {
        "district": "Goalpara",
        "dt_code": "302",
        "st_nm": "Assam",
        "st_code": "18"
      }
    },
    {
      "type": "Feature",
      "geometry": {
        "type": "Point",
        "coordinates": [
          91.884949,
          25.870613
        ]
      },
      "properties": {
        "district": "Ribhoi",
        "dt_code": "297",
        "st_nm": "Meghalaya",
        "st_code": "17"
      }
    },
    {
      "type": "Feature",
      "geometry": {
        "type": "Point",
        "coordinates": [
          93.030845,
          25.378273
        ]
      },
      "properties": {
        "district": "Dima Hasao",
        "dt_code": "315",
        "st_nm": "Assam",
        "st_code": "18"
      }
    },
    {
      "type": "Feature",
      "geometry": {
        "type": "Point",
        "coordinates": [
          94.432435,
          24.822463
        ]
      },
      "properties": {
        "district": "Kamjong",
        "dt_code": "770",
        "st_nm": "Manipur",
        "st_code": "14"
      }
    },
    {
      "type": "Feature",
      "geometry": {
        "type": "Point",
        "coordinates": [
          91.262144,
          25.605199
        ]
      },
      "properties": {
        "district": "West Khasi Hills",
        "dt_code": "296",
        "st_nm": "Meghalaya",
        "st_code": "17"
      }
    },
    {
      "type": "Feature",
      "geometry": {
        "type": "Point",
        "coordinates": [
          93.615571,
          25.492651
        ]
      },
      "properties": {
        "district": "Peren",
        "dt_code": "271",
        "st_nm": "Nagaland",
        "st_code": "13"
      }
    },
    {
      "type": "Feature",
      "geometry": {
        "type": "Point",
        "coordinates": [
          94.127248,
          25.398224
        ]
      },
      "properties": {
        "district": "Senapati",
        "dt_code": "272",
        "st_nm": "Manipur",
        "st_code": "14"
      }
    },
    {
      "type": "Feature",
      "geometry": {
        "type": "Point",
        "coordinates": [
          92.469199,
          25.258431
        ]
      },
      "properties": {
        "district": "East Jaintia Hills",
        "dt_code": "714",
        "st_nm": "Meghalaya",
        "st_code": "17"
      }
    },
    {
      "type": "Feature",
      "geometry": {
        "type": "Point",
        "coordinates": [
          91.797951,
          25.381434
        ]
      },
      "properties": {
        "district": "East Khasi Hills",
        "dt_code": "298",
        "st_nm": "Meghalaya",
        "st_code": "17"
      }
    },
    {
      "type": "Feature",
      "geometry": {
        "type": "Point",
        "coordinates": [
          93.556945,
          25.048454
        ]
      },
      "properties": {
        "district": "Tamenglong",
        "dt_code": "273",
        "st_nm": "Manipur",
        "st_code": "14"
      }
    },
    {
      "type": "Feature",
      "geometry": {
        "type": "Point",
        "coordinates": [
          90.58187,
          25.301221
        ]
      },
      "properties": {
        "district": "South Garo Hills",
        "dt_code": "295",
        "st_nm": "Meghalaya",
        "st_code": "17"
      }
    },
    {
      "type": "Feature",
      "geometry": {
        "type": "Point",
        "coordinates": [
          92.854728,
          24.811339
        ]
      },
      "properties": {
        "district": "Cachar",
        "dt_code": "316",
        "st_nm": "Assam",
        "st_code": "18"
      }
    },
    {
      "type": "Feature",
      "geometry": {
        "type": "Point",
        "coordinates": [
          93.868467,
          24.770757
        ]
      },
      "properties": {
        "district": "Imphal West",
        "dt_code": "277",
        "st_nm": "Manipur",
        "st_code": "14"
      }
    },
    {
      "type": "Feature",
      "geometry": {
        "type": "Point",
        "coordinates": [
          92.376755,
          24.574844
        ]
      },
      "properties": {
        "district": "Karimganj",
        "dt_code": "317",
        "st_nm": "Assam",
        "st_code": "18"
      }
    },
    {
      "type": "Feature",
      "geometry": {
        "type": "Point",
        "coordinates": [
          92.587273,
          24.496284
        ]
      },
      "properties": {
        "district": "Hailakandi",
        "dt_code": "318",
        "st_nm": "Assam",
        "st_code": "18"
      }
    },
    {
      "type": "Feature",
      "geometry": {
        "type": "Point",
        "coordinates": [
          93.917224,
          24.442615
        ]
      },
      "properties": {
        "district": "Kakching",
        "dt_code": "768",
        "st_nm": "Manipur",
        "st_code": "14"
      }
    },
    {
      "type": "Feature",
      "geometry": {
        "type": "Point",
        "coordinates": [
          93.797684,
          24.538125
        ]
      },
      "properties": {
        "district": "Bishnupur",
        "dt_code": "275",
        "st_nm": "Manipur",
        "st_code": "14"
      }
    },
    {
      "type": "Feature",
      "geometry": {
        "type": "Point",
        "coordinates": [
          94.014887,
          24.139679
        ]
      },
      "properties": {
        "district": "Chandel",
        "dt_code": "280",
        "st_nm": "Manipur",
        "st_code": "14"
      }
    },
    {
      "type": "Feature",
      "geometry": {
        "type": "Point",
        "coordinates": [
          93.602818,
          24.279864
        ]
      },
      "properties": {
        "district": "Churachandpur",
        "dt_code": "274",
        "st_nm": "Manipur",
        "st_code": "14"
      }
    },
    {
      "type": "Feature",
      "geometry": {
        "type": "Point",
        "coordinates": [
          92.206925,
          24.099207
        ]
      },
      "properties": {
        "district": "North Tripura",
        "dt_code": "292",
        "st_nm": "Tripura",
        "st_code": "16"
      }
    },
    {
      "type": "Feature",
      "geometry": {
        "type": "Point",
        "coordinates": [
          91.920623,
          23.840228
        ]
      },
      "properties": {
        "district": "Dhalai",
        "dt_code": "291",
        "st_nm": "Tripura",
        "st_code": "16"
      }
    },
    {
      "type": "Feature",
      "geometry": {
        "type": "Point",
        "coordinates": [
          91.329536,
          23.586262
        ]
      },
      "properties": {
        "district": "Sipahijala",
        "dt_code": "707",
        "st_nm": "Tripura",
        "st_code": "16"
      }
    },
    {
      "type": "Feature",
      "geometry": {
        "type": "Point",
        "coordinates": [
          91.619648,
          23.53062
        ]
      },
      "properties": {
        "district": "Gomati",
        "dt_code": "709",
        "st_nm": "Tripura",
        "st_code": "16"
      }
    },
    {
      "type": "Feature",
      "geometry": {
        "type": "Point",
        "coordinates": [
          94.197308,
          26.195064
        ]
      },